[
    {
        "category": "6f99d3f7071ea934d504e729ce2647a5", 
        "lat": 45.7721255, 
        "name": "OCTOLYS", 
        "long": 3.1161705, 
        "address": "17 rue du Pre la Reine 63100 Clermont-Ferrand"
    }, 
    {
        "category": "cf7050a5c9a865f7056ef4ea2ece39d3", 
        "lat": 48.81654, 
        "name": "INXIO", 
        "long": 2.395262, 
        "address": "33 RUE LENINE 94200 Ivry-sur-Seine"
    }, 
    {
        "category": "795f3202b17cb6bc3d4b771d8c6c9eaf", 
        "lat": 48.87817209999999, 
        "name": "HAAS SOCIETE D'AVOCAT", 
        "long": 2.2996729000000187, 
        "address": "87 boulevard de Courcelles 75008 Paris"
    }, 
    {
        "category": "795f3202b17cb6bc3d4b771d8c6c9eaf", 
        "lat": 48.846132, 
        "name": "PACKLINK SAS", 
        "long": 2.217578, 
        "address": "1 rue Royale 92213 Saint-Cloud"
    }, 
    {
        "category": "f234dffff28b2fc2c73c5ab8602dc205", 
        "lat": 48.85881005, 
        "name": "Lotomate", 
        "long": 2.32003101155031, 
        "address": "106 rue de Richelieu 75002 Paris"
    }, 
    {
        "category": "cf7050a5c9a865f7056ef4ea2ece39d3", 
        "lat": 48.856614, 
        "name": "PRESTASHOP", 
        "long": 2.3522219, 
        "address": "12 rue d'Amsterdam 75009 Paris"
    }, 
    {
        "category": "cf7050a5c9a865f7056ef4ea2ece39d3", 
        "lat": 48.5851902, 
        "name": "GOOD MORNING MAJOR", 
        "long": 7.734301100000001, 
        "address": "15 route du Rhin 67100 Strasbourg"
    }, 
    {
        "category": "cf7050a5c9a865f7056ef4ea2ece39d3", 
        "lat": 48.856614, 
        "name": "AGENCE MALTT", 
        "long": 2.3522219, 
        "address": "90 rue du Faubourg Saint-Martin 75010 Paris"
    }, 
    {
        "category": "cf7050a5c9a865f7056ef4ea2ece39d3", 
        "lat": 43.6280334, 
        "name": "JK SYSTEM", 
        "long": 7.0966445, 
        "address": "950 avenue Roumanille 06410 Biot"
    }, 
    {
        "category": "cf7050a5c9a865f7056ef4ea2ece39d3", 
        "lat": 50.6375088, 
        "name": "MDWEB", 
        "long": 3.1448925, 
        "address": "7 rue de la Distillerie 59493 Villeneuve-d'Ascq"
    }, 
    {
        "category": "603156d79917b5872f4d9dc87afadc3a", 
        "lat": 48.86690909999999, 
        "name": "PRICEMINISTER", 
        "long": 2.350501300000019, 
        "address": "92 rue R\u00e9aumur 75002 Paris"
    }, 
    {
        "category": "603156d79917b5872f4d9dc87afadc3a", 
        "lat": 45.7481616, 
        "name": "HANDICAP.FR", 
        "long": 4.85568586786413, 
        "address": "59 rue de l'Abondance 69003 Lyon"
    }, 
    {
        "category": "ae6bf33dca17c083b165de292947dacb", 
        "lat": 48.85881005, 
        "name": "IZBERG", 
        "long": 2.32003101155031, 
        "address": "77 rue La Bo\u00e9tie 75008 Paris"
    }, 
    {
        "category": "ae6bf33dca17c083b165de292947dacb", 
        "lat": 50.63281540000001, 
        "name": "COMPTOIR DU CODE", 
        "long": 3.0465263, 
        "address": "165 avenue de Bretagne 59000 Lille"
    }, 
    {
        "category": "ae6bf33dca17c083b165de292947dacb", 
        "lat": 45.7481616, 
        "name": "WIZACHA", 
        "long": 4.85568586786413, 
        "address": "40 rue Laure Diebold 69009 Lyon"
    }, 
    {
        "category": "c426c73c3ac919e78e96fc4aa4f68a0c", 
        "lat": 48.85881005, 
        "name": "LeGuide.com", 
        "long": 2.32003101155031, 
        "address": "12 rue Godot de Mauroy 75009 Paris"
    }, 
    {
        "category": "c426c73c3ac919e78e96fc4aa4f68a0c", 
        "lat": 48.85881005, 
        "name": "KELKOO", 
        "long": 2.32003101155031, 
        "address": "12 rue Godot de Mauroy 75009 Paris"
    }, 
    {
        "category": "c426c73c3ac919e78e96fc4aa4f68a0c", 
        "lat": 48.856614, 
        "name": "HELLOPRO", 
        "long": 2.3522219, 
        "address": "5 avenue de la R\u00e9publique 75011 Paris"
    }, 
    {
        "category": "c426c73c3ac919e78e96fc4aa4f68a0c", 
        "lat": 48.856614, 
        "name": "GOOGLE FRANCE", 
        "long": 2.3522219, 
        "address": "8 rue de Londres 75009 Paris"
    }, 
    {
        "category": "b5ec1bd5fd608b0d52d653e7fdc98352", 
        "lat": 48.856614, 
        "name": "CUBYN", 
        "long": 2.3522219, 
        "address": "26 boulevard Saint-Denis 75010 Paris"
    }, 
    {
        "category": "b5ec1bd5fd608b0d52d653e7fdc98352", 
        "lat": 43.5283, 
        "name": "COLIS PRIVE", 
        "long": 5.4497, 
        "address": "1330 avenue Guillibert de la Lauzi\u00e8re 13592 CEDEX 3 Aix-en-Provence"
    }, 
    {
        "category": "6f99d3f7071ea934d504e729ce2647a5", 
        "lat": 48.856614, 
        "name": "PRESTASHOP", 
        "long": 2.3522219, 
        "address": "12 rue d'Amsterdam 75009 Paris"
    }, 
    {
        "category": "6f99d3f7071ea934d504e729ce2647a5", 
        "lat": 43.2080697, 
        "name": "SARL EOXIA", 
        "long": 2.3697381, 
        "address": "5B rue du Pont de Lattes 34070 Montpellier"
    }, 
    {
        "category": "cf7050a5c9a865f7056ef4ea2ece39d3", 
        "lat": 48.856614, 
        "name": "THE OTHER STORE", 
        "long": 2.3522219, 
        "address": "11 rue de Poissy 75005 Paris"
    }, 
    {
        "category": "cf7050a5c9a865f7056ef4ea2ece39d3", 
        "lat": 48.906065, 
        "name": "SMILE", 
        "long": 2.28271, 
        "address": "20 rue des Jardins 92600 Asni\u00e8res-sur-Seine"
    }, 
    {
        "category": "cf7050a5c9a865f7056ef4ea2ece39d3", 
        "lat": 48.856614, 
        "name": "SOON", 
        "long": 2.3522219, 
        "address": "94/96 avenue Ledru-Rollin 75011 Paris"
    }, 
    {
        "category": "795f3202b17cb6bc3d4b771d8c6c9eaf", 
        "lat": 48.85881005, 
        "name": "HIPAY", 
        "long": 2.32003101155031, 
        "address": "6 place du Colonel Bourgoin 75012 Paris"
    }, 
    {
        "category": "795f3202b17cb6bc3d4b771d8c6c9eaf", 
        "lat": 48.85881005, 
        "name": "WEBHELP", 
        "long": 2.32003101155031, 
        "address": "161 rue de Courcelles 75017 Paris"
    }, 
    {
        "category": "795f3202b17cb6bc3d4b771d8c6c9eaf", 
        "lat": 48.9007611, 
        "name": "TEAMLOG", 
        "long": 2.2897758, 
        "address": "24-32 rue Jacques Ibert 92300 Levallois-Perret"
    }, 
    {
        "category": "795f3202b17cb6bc3d4b771d8c6c9eaf", 
        "lat": 48.856614, 
        "name": "MAILJET", 
        "long": 2.3522219, 
        "address": "13-13 bis rue de l'Aubrac 75012 Paris"
    }, 
    {
        "category": "795f3202b17cb6bc3d4b771d8c6c9eaf", 
        "lat": 48.81876099999999, 
        "name": "SHOPPING FLUX", 
        "long": 2.3205051, 
        "address": "21 avenue du Fort 92120 Montrouge"
    }, 
    {
        "category": "795f3202b17cb6bc3d4b771d8c6c9eaf", 
        "lat": 48.8656669, 
        "name": "ALGOLIA", 
        "long": 2.3559814000000188, 
        "address": "88 rue de Rivoli 75004 Paris"
    }, 
    {
        "category": "795f3202b17cb6bc3d4b771d8c6c9eaf", 
        "lat": 48.852657, 
        "name": "INGENICO GROUP", 
        "long": 2.2902248999999983, 
        "address": "28-32 boulevard de Grenelle 75015 Paris"
    }, 
    {
        "category": "795f3202b17cb6bc3d4b771d8c6c9eaf", 
        "lat": 48.8957946, 
        "name": "XEBIA IT ARCHITECTS", 
        "long": 2.2386613999999554, 
        "address": "10-12 avenue de l'Arche 92419 CEDEX Courbevoie"
    }, 
    {
        "category": "795f3202b17cb6bc3d4b771d8c6c9eaf", 
        "lat": 48.856614, 
        "name": "ADSVISERS", 
        "long": 2.3522219, 
        "address": "38 all\u00e9e Vivaldi 75012 Paris"
    }, 
    {
        "category": "795f3202b17cb6bc3d4b771d8c6c9eaf", 
        "lat": 48.85881005, 
        "name": "BOXTALE", 
        "long": 2.32003101155031, 
        "address": "12 rue Vivienne - Lot 3 - 75002 Paris"
    }, 
    {
        "category": "795f3202b17cb6bc3d4b771d8c6c9eaf", 
        "lat": 48.9065957, 
        "name": "COMPAGNIE IBM FRANCE", 
        "long": 2.262257200000022, 
        "address": "17 avenue de l'Europe 92275 CEDEX Bois-Colombes"
    }, 
    {
        "category": "795f3202b17cb6bc3d4b771d8c6c9eaf", 
        "lat": 48.9188, 
        "name": "ORACLE FRANCE", 
        "long": 2.254, 
        "address": "15 boulevard Charles de Gaulle 92715 CEDEX Colombes"
    }, 
    {
        "category": "795f3202b17cb6bc3d4b771d8c6c9eaf", 
        "lat": 47.2067229, 
        "name": "LENGOW", 
        "long": -1.5385874999999487, 
        "address": "6 rue Ren\u00e9 Viviani 44200 Nantes"
    }, 
    {
        "category": "795f3202b17cb6bc3d4b771d8c6c9eaf", 
        "lat": 48.8309331, 
        "name": "ACCENTURE", 
        "long": 2.3766656999999896, 
        "address": "118-122 avenue de France 75013 Paris"
    }, 
    {
        "category": "795f3202b17cb6bc3d4b771d8c6c9eaf", 
        "lat": 48.9195337, 
        "name": "SQLI", 
        "long": 2.357901599999991, 
        "address": "268 avenue du Pr\u00e9sident Wilson 93200 Saint-Denis"
    }, 
    {
        "category": "795f3202b17cb6bc3d4b771d8c6c9eaf", 
        "lat": 48.856614, 
        "name": "DATASOLUTION", 
        "long": 2.3522219, 
        "address": "94-96 avenue Ledru Rollin-5 bis Pge de la Bonne Graine 75011 Paris"
    }, 
    {
        "category": "795f3202b17cb6bc3d4b771d8c6c9eaf", 
        "lat": 48.8337396, 
        "name": "VISEO", 
        "long": 2.226862100000062, 
        "address": "27-33 quai Alphonse le Gallo 92100 Boulogne-Billancourt"
    }, 
    {
        "category": "795f3202b17cb6bc3d4b771d8c6c9eaf", 
        "lat": 48.9047948, 
        "name": "G.F.I. INFORMATIQUE", 
        "long": 2.32303150000007, 
        "address": "145 BD Victor Hugo 93400 Saint-Ouen"
    }, 
    {
        "category": "f02c1c08cd41d8bf9e18faaafeb5a601", 
        "lat": 48.8919, 
        "name": "RESTLET", 
        "long": 2.239, 
        "address": "2 place de la D\u00e9fense - Cnit Paris 92053 CEDEX Paris La D\u00e9fense"
    }, 
    {
        "category": "f02c1c08cd41d8bf9e18faaafeb5a601", 
        "lat": 43.69367099999999, 
        "name": "BUSIT", 
        "long": 7.288076999999999, 
        "address": "205 promenade des Anglais 06200 Nice"
    }, 
    {
        "category": "b5ec1bd5fd608b0d52d653e7fdc98352", 
        "lat": 48.659324, 
        "name": "L4 LOGISTICS", 
        "long": 2.414492, 
        "address": "44 avenue Paul Langevin Zone Industrielle Orme de Pomponne 91130 Ris-Orangis"
    }, 
    {
        "category": null, 
        "lat": 48.8761407, 
        "name": "1000MERCIS", 
        "long": 2.33741729999997, 
        "address": "28 rue de Ch\u00e2teaudun 75009 Paris"
    }, 
    {
        "category": "db96ff26706a1a3d595ecb67266c2d94", 
        "lat": 48.856614, 
        "name": "ACI WORLDWIDE FRANCE", 
        "long": 2.3522219, 
        "address": "3 square Desaix 75015 Paris"
    }, 
    {
        "category": null, 
        "lat": 48.9085, 
        "name": "AFNOR COMPETENCES", 
        "long": 2.3638, 
        "address": "11 rue Francis de Pressens\u00e9 93571 CEDEX La Plaine-Saint-Denis"
    }, 
    {
        "category": "db96ff26706a1a3d595ecb67266c2d94", 
        "lat": 48.856614, 
        "name": "AKAMAI TECHNOLOGIES", 
        "long": 2.3522219, 
        "address": "40-44 rue Washington 75008 Paris"
    }, 
    {
        "category": "db96ff26706a1a3d595ecb67266c2d94", 
        "lat": 48.85881005, 
        "name": "ALLURE SYSTEMS RESEARCH FRANCE", 
        "long": 2.32003101155031, 
        "address": "7 rue de Castellane 75008 Paris"
    }, 
    {
        "category": "db96ff26706a1a3d595ecb67266c2d94", 
        "lat": 50.68748949999999, 
        "name": "ALTIMA", 
        "long": 3.1780367999999726, 
        "address": "33 rue Dupleix 59100 Roubaix"
    }, 
    {
        "category": "b5ec1bd5fd608b0d52d653e7fdc98352", 
        "lat": 46.36160940000001, 
        "name": "SARL BCGS", 
        "long": 4.8506627, 
        "address": "9 rue Amp\u00e8re 71000 M\u00e2con"
    }, 
    {
        "category": "db96ff26706a1a3d595ecb67266c2d94", 
        "lat": 48.85881005, 
        "name": "BEE BUZZINESS", 
        "long": 2.32003101155031, 
        "address": "3 cit\u00e9 d'Hauteville 75010 Paris"
    }, 
    {
        "category": "db96ff26706a1a3d595ecb67266c2d94", 
        "lat": 48.8746822, 
        "name": "BNP PARIBAS PERSONAL FINANCE", 
        "long": 2.3398975000000064, 
        "address": "1 boulevard Haussmann 75009 Paris"
    }, 
    {
        "category": "b5ec1bd5fd608b0d52d653e7fdc98352", 
        "lat": 48.0237611, 
        "name": "BRETAGNE SERVICES LOGISTIQUES", 
        "long": -1.7488876, 
        "address": "rue Edouard Branly Z.A. la Massue 35170 Bruz"
    }, 
    {
        "category": "db96ff26706a1a3d595ecb67266c2d94", 
        "lat": 48.856614, 
        "name": "CATALISIO", 
        "long": 2.3522219, 
        "address": "18 rue Yves Toudic 75010 Paris"
    }, 
    {
        "category": "db96ff26706a1a3d595ecb67266c2d94", 
        "lat": 48.60071190000001, 
        "name": "CAISSE FEDERALE DE CREDIT MUTUEL", 
        "long": 7.7572772999999415, 
        "address": "34 rue du Wacken 67000 Strasbourg"
    }, 
    {
        "category": "b5ec1bd5fd608b0d52d653e7fdc98352", 
        "lat": 48.65, 
        "name": "C LOG", 
        "long": -2.0167, 
        "address": "LA MOINERIE 35400 Saint-Malo"
    }, 
    {
        "category": "b5ec1bd5fd608b0d52d653e7fdc98352", 
        "lat": 48.278842, 
        "name": "La Poste", 
        "long": 6.133587000000034, 
        "address": "9 rue du Colonel Pierre Avia 75015 Paris"
    }, 
    {
        "category": "b5ec1bd5fd608b0d52d653e7fdc98352", 
        "lat": 50.63281540000001, 
        "name": "COLISWEB", 
        "long": 3.0465263, 
        "address": "165 avenue de Bretagne 59000 Lille"
    }, 
    {
        "category": "db96ff26706a1a3d595ecb67266c2d94", 
        "lat": 48.8856599, 
        "name": "DECADE", 
        "long": 2.390247899999963, 
        "address": "18/26 rue Goubet 75019 Paris"
    }, 
    {
        "category": "b5ec1bd5fd608b0d52d653e7fdc98352", 
        "lat": 43.6293863, 
        "name": "DEVATICS", 
        "long": 1.367682, 
        "address": "27 rue d'Aubuisson 31000 Toulouse"
    }, 
    {
        "category": "b5ec1bd5fd608b0d52d653e7fdc98352", 
        "lat": 50.6540895, 
        "name": "DISPEO", 
        "long": 3.1839429, 
        "address": "5 avenue Antoine Pinay 59510 Hem"
    }, 
    {
        "category": "db96ff26706a1a3d595ecb67266c2d94", 
        "lat": 43.675209, 
        "name": "DIXIT GLOBAL SOLUTIONS", 
        "long": 7.192127799999999, 
        "address": "1567 route des Pugets 06700 Saint-Laurent-du-Var"
    }, 
    {
        "category": "db96ff26706a1a3d595ecb67266c2d94", 
        "lat": 43.343354, 
        "name": "DOYOUSOFT", 
        "long": 3.2111360000000104, 
        "address": "17 place Pierre Semard 34500 B\u00e9ziers"
    }, 
    {
        "category": "b5ec1bd5fd608b0d52d653e7fdc98352", 
        "lat": 48.82976629999999, 
        "name": "DPD France", 
        "long": 2.276608099999976, 
        "address": "27 rue du Colonel Pierre Avia 75015 Paris"
    }, 
    {
        "category": "db96ff26706a1a3d595ecb67266c2d94", 
        "lat": 48.8849586, 
        "name": "DQE-SOFTWARE", 
        "long": 2.269797, 
        "address": "176 avenue Charles de Gaulle 92200 Neuilly-sur-Seine"
    }, 
    {
        "category": "b5ec1bd5fd608b0d52d653e7fdc98352", 
        "lat": 43.6293863, 
        "name": "e-LOGIK", 
        "long": 1.367682, 
        "address": "18 rue Jean P\u00e9rrin 31100 Toulouse"
    }, 
    {
        "category": "db96ff26706a1a3d595ecb67266c2d94", 
        "lat": 48.854502, 
        "name": "E-SHOPSTUDIO", 
        "long": 2.421206, 
        "address": "20 rue Voltaire 93100 Montreuil"
    }, 
    {
        "category": "b5ec1bd5fd608b0d52d653e7fdc98352", 
        "lat": 43.5264925, 
        "name": "FACILECOMM", 
        "long": 1.5162722, 
        "address": "1244 L'Occitane 31670 Lab\u00e8ge"
    }, 
    {
        "category": "db96ff26706a1a3d595ecb67266c2d94", 
        "lat": 48.8684632, 
        "name": "FASTERIZE", 
        "long": 2.3571340999999393, 
        "address": "48 rue Meslay 75003 Paris"
    }, 
    {
        "category": "db96ff26706a1a3d595ecb67266c2d94", 
        "lat": 48.85881005, 
        "name": "FIA-NET", 
        "long": 2.32003101155031, 
        "address": "3-5 rue Saint-Georges 75009 Paris"
    }, 
    {
        "category": "db96ff26706a1a3d595ecb67266c2d94", 
        "lat": 48.9038333, 
        "name": "GOALAND", 
        "long": 2.346854399999984, 
        "address": "155/159 rue du Docteur Bauer 93400 Saint-Ouen"
    }, 
    {
        "category": "db96ff26706a1a3d595ecb67266c2d94", 
        "lat": 48.856614, 
        "name": "GOOGLE FRANCE", 
        "long": 2.3522219, 
        "address": "8 rue de Londres 75009 Paris"
    }, 
    {
        "category": "db96ff26706a1a3d595ecb67266c2d94", 
        "lat": 48.856614, 
        "name": "ARKEUP", 
        "long": 2.3522219, 
        "address": "8 boulevard Montmartre 75009 Paris"
    }, 
    {
        "category": null, 
        "lat": 43.5283, 
        "name": "HIGH CO DATA", 
        "long": 5.4497, 
        "address": "110 AVENUE GALILEE 13799 CEDEX 3 Aix-en-Provence"
    }, 
    {
        "category": null, 
        "lat": 48.85881005, 
        "name": "HowTank", 
        "long": 2.32003101155031, 
        "address": "4 cit\u00e9 Saint-Chaumont 75019 Paris"
    }, 
    {
        "category": null, 
        "lat": 47.207322, 
        "name": "iAdvize", 
        "long": -1.5560915999999452, 
        "address": "2 ter quai Fran\u00e7ois Mitterrand 44200 Nantes"
    }, 
    {
        "category": null, 
        "lat": 48.898046, 
        "name": "IMX DISTRIBUTION GROUP", 
        "long": 2.399786, 
        "address": "110 Bis avenue du G\u00e9n\u00e9ral Leclerc 93500 Pantin"
    }, 
    {
        "category": "b5ec1bd5fd608b0d52d653e7fdc98352", 
        "lat": 48.8717113, 
        "name": "INPOST FRANCE", 
        "long": 2.3530317, 
        "address": "4 rue d'Enghien 75010 Paris"
    }, 
    {
        "category": "db96ff26706a1a3d595ecb67266c2d94", 
        "lat": 48.85881005, 
        "name": "ITELIOS", 
        "long": 2.32003101155031, 
        "address": "78 rue Taitbout 75009 Paris"
    }, 
    {
        "category": null, 
        "lat": 45.7542747, 
        "name": "ITinSell", 
        "long": 4.8343414, 
        "address": "129 rue Servient 15\u00e9me \u00c9tage Tour du Cr\u00e9dit Lyonnais 69003 Lyon"
    }, 
    {
        "category": "db96ff26706a1a3d595ecb67266c2d94", 
        "lat": 45.7735448, 
        "name": "ITIS Commerce", 
        "long": 4.797577400000023, 
        "address": "65 rue du Bourbonnais 69009 Lyon"
    }, 
    {
        "category": "b5ec1bd5fd608b0d52d653e7fdc98352", 
        "lat": 48.84335100000001, 
        "name": "KERN RH SOLUTIONS", 
        "long": 2.464726, 
        "address": "229 rue la Fontaine 94120 Fontenay-sous-Bois"
    }, 
    {
        "category": "db96ff26706a1a3d595ecb67266c2d94", 
        "lat": 48.856614, 
        "name": "CYBERSERVICES FRANCE", 
        "long": 2.3522219, 
        "address": "11 rue Jean Bologne 75016 Paris"
    }, 
    {
        "category": "db96ff26706a1a3d595ecb67266c2d94", 
        "lat": 48.856614, 
        "name": "ORDIWORLD.COM", 
        "long": 2.3522219, 
        "address": "41 avenue Albert Bartholom\u00e9 75015 Paris"
    }, 
    {
        "category": "b5ec1bd5fd608b0d52d653e7fdc98352", 
        "lat": 43.2948826, 
        "name": "MAPOTEMPO", 
        "long": -0.3755359, 
        "address": "2 avenue Pierre Angot 64053 Pau"
    }, 
    {
        "category": "db96ff26706a1a3d595ecb67266c2d94", 
        "lat": 50.6537798, 
        "name": "LEMAY INNOVATION", 
        "long": 3.05544, 
        "address": "40 rue de l'Abb\u00e9 Lemire 59110 La Madeleine"
    }, 
    {
        "category": null, 
        "lat": 48.1105139, 
        "name": "MEDIEGO", 
        "long": -1.682624, 
        "address": "11 rue la P\u00e9rouse 35000 Rennes"
    }, 
    {
        "category": null, 
        "lat": 50.63281540000001, 
        "name": "DECROIX", 
        "long": 3.0465263, 
        "address": "165 avenue de Bretagne 59000 Lille"
    }, 
    {
        "category": null, 
        "lat": 50.6375088, 
        "name": "MEZZO", 
        "long": 3.1448925, 
        "address": "243-245 rue Jean Jaur\u00e8s 59650 Villeneuve-d'Ascq"
    }, 
    {
        "category": "db96ff26706a1a3d595ecb67266c2d94", 
        "lat": 48.8661414, 
        "name": "MIRAKL", 
        "long": 2.2926717999999937, 
        "address": "45 rue de la Bienfaisance 75008 Paris"
    }, 
    {
        "category": "b5ec1bd5fd608b0d52d653e7fdc98352", 
        "lat": 48.8741327, 
        "name": "MONDIAL RELAY", 
        "long": 2.347026700000015, 
        "address": "5 avenue Antoine Pinay Centre de Tri- Zac des 4 Vents 59510 Hem"
    }, 
    {
        "category": "db96ff26706a1a3d595ecb67266c2d94", 
        "lat": 50.4731587, 
        "name": "NO BLUE SCREEN SYSTEM", 
        "long": 3.4675015000000258, 
        "address": "8 rue Bernard Buffet 75017 Paris"
    }, 
    {
        "category": "b5ec1bd5fd608b0d52d653e7fdc98352", 
        "lat": 48.6723269, 
        "name": "NEOLYS", 
        "long": 2.320152, 
        "address": "11 rue des Carri\u00e8res 91360 \u00c9pinay-sur-Orge"
    }, 
    {
        "category": "b5ec1bd5fd608b0d52d653e7fdc98352", 
        "lat": 48.856614, 
        "name": "NEXT TERRA INTERNATIONAL", 
        "long": 2.3522219, 
        "address": "27-29 rue Raffet 75016 Paris"
    }, 
    {
        "category": "db96ff26706a1a3d595ecb67266c2d94", 
        "lat": 50.6844596, 
        "name": "ONEY BANK", 
        "long": 3.1604801, 
        "address": "40 avenue de Flandre 59170 Croix"
    }, 
    {
        "category": "db96ff26706a1a3d595ecb67266c2d94", 
        "lat": 48.8919, 
        "name": "OSF GLOBAL FRANCE", 
        "long": 2.239, 
        "address": "12 place de la D\u00e9fense 92974 CEDEX Paris La D\u00e9fense"
    }, 
    {
        "category": "db96ff26706a1a3d595ecb67266c2d94", 
        "lat": 48.856614, 
        "name": "HIPSTECH", 
        "long": 2.3522219, 
        "address": "25 boulevard de Strasbourg 75010 Paris"
    }, 
    {
        "category": "db96ff26706a1a3d595ecb67266c2d94", 
        "lat": 45.60260359999999, 
        "name": "C S T I", 
        "long": 4.761601599999949, 
        "address": "Chemin de Montreuil \u00e0 Claye 93140 Bondy"
    }, 
    {
        "category": "b5ec1bd5fd608b0d52d653e7fdc98352", 
        "lat": 48.846132, 
        "name": "PACKLINK SAS", 
        "long": 2.217578, 
        "address": "1 rue Royale 92213 Saint-Cloud"
    }, 
    {
        "category": "db96ff26706a1a3d595ecb67266c2d94", 
        "lat": 48.866165, 
        "name": "POINT TRANSACTION SYSTEMS", 
        "long": 2.3332269999999653, 
        "address": "11 a rue Jacques Cartier 78280 Guyancourt"
    }, 
    {
        "category": "db96ff26706a1a3d595ecb67266c2d94", 
        "lat": 48.88930719999999, 
        "name": "MONEXT", 
        "long": 2.2436510999999655, 
        "address": "5 place de la Pyramide-Tour Ariane 92800 Puteaux"
    }, 
    {
        "category": "db96ff26706a1a3d595ecb67266c2d94", 
        "lat": 48.8620806, 
        "name": "LEMON WAY", 
        "long": 2.4364691000000676, 
        "address": "14 rue de la Beaume B\u00e2timent B 93100 Montreuil"
    }, 
    {
        "category": "db96ff26706a1a3d595ecb67266c2d94", 
        "lat": 43.54141, 
        "name": "LYRA NETWORK", 
        "long": 1.5165509999999358, 
        "address": "109 rue de l'Innovation 31670 Lab\u00e8ge"
    }, 
    {
        "category": "b5ec1bd5fd608b0d52d653e7fdc98352", 
        "lat": 48.9035305, 
        "name": "PICKUP SERVICES", 
        "long": 2.347072300000036, 
        "address": "155 159 rue du Docteur Bauer 93583 Saint-Ouen"
    }, 
    {
        "category": "db96ff26706a1a3d595ecb67266c2d94", 
        "lat": 47.34032630000001, 
        "name": "SARL PLANET BOURGOGNE", 
        "long": 5.077801099999988, 
        "address": "24 rue de la Redoute 21850 Saint-Apollinaire"
    }, 
    {
        "category": "db96ff26706a1a3d595ecb67266c2d94", 
        "lat": 48.85881005, 
        "name": "PRICING ASSISTANT", 
        "long": 2.32003101155031, 
        "address": "39 rue Beauregard 75002 Paris"
    }, 
    {
        "category": "b5ec1bd5fd608b0d52d653e7fdc98352", 
        "lat": 48.9785468, 
        "name": "RAJA", 
        "long": 2.51478689999999, 
        "address": "16 rue de l'\u00c9tang 93290 Tremblay-en-France"
    }, 
    {
        "category": "b5ec1bd5fd608b0d52d653e7fdc98352", 
        "lat": 48.7828789, 
        "name": "RELAIS COLIS", 
        "long": 2.4625237, 
        "address": "41 rue Charles Edouard le Corbusier Immeuble le Tripode Za Europarc 94000 Cr\u00e9teil"
    }, 
    {
        "category": null, 
        "lat": 48.6924176, 
        "name": "SAILENDRA", 
        "long": 6.200315100000012, 
        "address": "2 rue Jacques Villermaux 54000 Nancy"
    }, 
    {
        "category": null, 
        "lat": 48.8563223, 
        "name": "SALESFORCE.COM FRANCE", 
        "long": 2.2934979999999996, 
        "address": "3 avenue Octave Gr\u00e9ard 75007 Paris"
    }, 
    {
        "category": "db96ff26706a1a3d595ecb67266c2d94", 
        "lat": 48.856614, 
        "name": "SEENK", 
        "long": 2.3522219, 
        "address": "16/18 rue Popincourt 75011 Paris"
    }, 
    {
        "category": "db96ff26706a1a3d595ecb67266c2d94", 
        "lat": 48.90897529999999, 
        "name": "SENSIOLABS", 
        "long": 2.3011787, 
        "address": "92/98 boulevard Victor Hugo 92110 Clichy"
    }, 
    {
        "category": null, 
        "lat": 48.7765601, 
        "name": "SERENEO", 
        "long": 2.2381795999999667, 
        "address": "10 avenue Reaumur 92140 Clamart"
    }, 
    {
        "category": null, 
        "lat": 48.8172236, 
        "name": "SEWAPACK", 
        "long": 7.7885978, 
        "address": "9,\u00a0rue Maryse-Bastie 67500 Haguenau"
    }, 
    {
        "category": "db96ff26706a1a3d595ecb67266c2d94", 
        "lat": 47.370265, 
        "name": "BIEN ENCRE", 
        "long": 5.0195768, 
        "address": "12 rue des Grandes Varennes 21121 Ahuy"
    }, 
    {
        "category": "db96ff26706a1a3d595ecb67266c2d94", 
        "lat": 48.856614, 
        "name": "WEB & COW", 
        "long": 2.3522219, 
        "address": "91 rue du Faubourg Saint-Honor\u00e9 75008 Paris"
    }, 
    {
        "category": "db96ff26706a1a3d595ecb67266c2d94", 
        "lat": 48.7807469, 
        "name": "ILES - MEDIAS", 
        "long": 2.583539, 
        "address": "3 RUE de l'Avenir 94510 LA QUEUE EN BRIE"
    }, 
    {
        "category": null, 
        "lat": 48.856614, 
        "name": "SHIPLEADER RETURNS", 
        "long": 2.3522219, 
        "address": "59 rue des Petits Champs 75001 Paris"
    }, 
    {
        "category": null, 
        "lat": 48.856614, 
        "name": "SHOWROOM DU NET", 
        "long": 2.3522219, 
        "address": "10 rue des Filles Du Calvaire 75003 Paris"
    }, 
    {
        "category": "db96ff26706a1a3d595ecb67266c2d94", 
        "lat": 48.856614, 
        "name": "SMARTT", 
        "long": 2.3522219, 
        "address": "87 rue de Gergovie 75014 Paris"
    }, 
    {
        "category": null, 
        "lat": 43.2888435, 
        "name": "MOBILE PRO", 
        "long": 5.387511600000039, 
        "address": "84 rue de Lodi 13006 Marseille"
    }, 
    {
        "category": "b5ec1bd5fd608b0d52d653e7fdc98352", 
        "lat": 48.9836, 
        "name": "SOCIETE POUR LE DEVELOPPEMENT DU FRET EXPRESS INTERNATIONAL- SODEXI", 
        "long": 2.5256, 
        "address": "2 rue des Voyelles 95723 CEDEX 1 Roissy Charles-de-Gaulle"
    }, 
    {
        "category": "db96ff26706a1a3d595ecb67266c2d94", 
        "lat": 47.6767896, 
        "name": "SOLEDIS", 
        "long": -2.8025734000000284, 
        "address": "1 rue Marguerite Perey - Atlanparc 56890 Plescop"
    }, 
    {
        "category": null, 
        "lat": 50.63281540000001, 
        "name": "COMPARIO", 
        "long": 3.0465263, 
        "address": "165 avenue de Bretagne Immeuble le Blan Lafont 59000 Lille"
    }, 
    {
        "category": "db96ff26706a1a3d595ecb67266c2d94", 
        "lat": 50.6909916, 
        "name": "SERVICE RECHERCHE DEVELOPPEMENT", 
        "long": 3.168275499999936, 
        "address": "17 rue du Grand Chemin 59100 Roubaix"
    }, 
    {
        "category": "b5ec1bd5fd608b0d52d653e7fdc98352", 
        "lat": 45.726516, 
        "name": "STAR'S SERVICE MANAGEMENT", 
        "long": 4.8452330000000075, 
        "address": "1 Bis villa Charles 93800 \u00c9pinay-sur-Seine"
    }, 
    {
        "category": "db96ff26706a1a3d595ecb67266c2d94", 
        "lat": 48.8812417, 
        "name": "D\u00c9CROCHER LA LUNE", 
        "long": 2.3526301, 
        "address": "20 rue St Vincent de Paul 75010 Paris"
    }, 
    {
        "category": null, 
        "lat": 49.205, 
        "name": "BAZANDO", 
        "long": -0.2961111, 
        "address": "2 rue Jean Perrin 14460 Colombelles"
    }, 
    {
        "category": null, 
        "lat": 48.86942149999999, 
        "name": "VBU VOCATION BACK UP", 
        "long": 2.297190199999932, 
        "address": "17 chemin des Boulangers 78530 Buc"
    }, 
    {
        "category": null, 
        "lat": 48.856614, 
        "name": "TELEPERFORMANCE SE", 
        "long": 2.3522219, 
        "address": "21/25 rue Balzac 75008 Paris"
    }, 
    {
        "category": null, 
        "lat": 48.85881005, 
        "name": "Tevea International", 
        "long": 2.32003101155031, 
        "address": "29-31 rue Saint-Augustin 75002 Paris"
    }, 
    {
        "category": null, 
        "lat": 48.85881005, 
        "name": "THE CONTINUITY COMPANY", 
        "long": 2.32003101155031, 
        "address": "15 rue Taitbout 75009 Paris"
    }, 
    {
        "category": "db96ff26706a1a3d595ecb67266c2d94", 
        "lat": 48.856614, 
        "name": "YUVA", 
        "long": 2.3522219, 
        "address": "75 boulevard Haussmann 75008 Paris"
    }, 
    {
        "category": "b5ec1bd5fd608b0d52d653e7fdc98352", 
        "lat": 48.0721844, 
        "name": "TRED UNION", 
        "long": 7.347407199999999, 
        "address": "184,\u00a0rue du Ladhof 68000 Colmar"
    }, 
    {
        "category": "db96ff26706a1a3d595ecb67266c2d94", 
        "lat": 45.7542747, 
        "name": "VAADATA", 
        "long": 4.8343414, 
        "address": "31 Grande rue de Vaise 69009 Lyon"
    }, 
    {
        "category": "db96ff26706a1a3d595ecb67266c2d94", 
        "lat": 48.75493, 
        "name": "VIAMOBIS", 
        "long": 2.301024, 
        "address": "25 avenue de la Division Leclerc 92160 Antony"
    }, 
    {
        "category": "b5ec1bd5fd608b0d52d653e7fdc98352", 
        "lat": 48.8455931, 
        "name": "VIR VEHICULES INTERVENTION RAPIDE", 
        "long": 2.3970717, 
        "address": "11 avenue de Saint-Mand\u00e9 75012 Paris"
    }, 
    {
        "category": "db96ff26706a1a3d595ecb67266c2d94", 
        "lat": 45.7807833, 
        "name": "VISIATIV SOFTWARE", 
        "long": 4.7394473, 
        "address": "26 rue Benoit Bennier 69260 Charbonni\u00e8res-les-Bains"
    }, 
    {
        "category": "db96ff26706a1a3d595ecb67266c2d94", 
        "lat": 48.856614, 
        "name": "VNC ONLINE", 
        "long": 2.3522219, 
        "address": "21 rue Beccaria 75012 Paris"
    }, 
    {
        "category": "db96ff26706a1a3d595ecb67266c2d94", 
        "lat": 49.3820688, 
        "name": "WEB ET SOLUTIONS", 
        "long": 1.0773659999999836, 
        "address": "705 avenue Isaac Newton 76800 Saint-\u00c9tienne-du-Rouvray"
    }, 
    {
        "category": null, 
        "lat": 48.856614, 
        "name": "VIGICOLIS SAS", 
        "long": 2.3522219, 
        "address": "29 rue de la Plaine 75020 Paris"
    }, 
    {
        "category": null, 
        "lat": 48.856614, 
        "name": "WIBILONG", 
        "long": 2.3522219, 
        "address": "10 rue de Castiglione 75001 Paris"
    }, 
    {
        "category": "db96ff26706a1a3d595ecb67266c2d94", 
        "lat": 45.2086687, 
        "name": "WEBMARKETING BOOSTER", 
        "long": 5.793179499999951, 
        "address": "29 chemin du Vieux Ch\u00eane 38240 Meylan"
    }, 
    {
        "category": "cf7050a5c9a865f7056ef4ea2ece39d3", 
        "lat": 45.67396339999999, 
        "name": "EVOLUTIVE BUSINESS", 
        "long": 4.783784999999966, 
        "address": "206 route de Vourles 69230 Saint-Genis-Laval"
    }, 
    {
        "category": "cf7050a5c9a865f7056ef4ea2ece39d3", 
        "lat": 47.8390545, 
        "name": "DRMCT", 
        "long": 1.9349041, 
        "address": "16 rue L\u00e9onard de Vinci Centre d'Innovation 45074 Orl\u00e9ans"
    }, 
    {
        "category": "cf7050a5c9a865f7056ef4ea2ece39d3", 
        "lat": 45.64574205, 
        "name": "NEWQUEST", 
        "long": 5.96339046108836, 
        "address": "286 rue Fran\u00e7ois Guise 73000 Chamb\u00e9ry"
    }, 
    {
        "category": "cf7050a5c9a865f7056ef4ea2ece39d3", 
        "lat": 48.845562, 
        "name": "ANTADIS", 
        "long": 2.324936100000059, 
        "address": "1 rue de Clairefontaine 78120 Rambouillet"
    }, 
    {
        "category": "cf7050a5c9a865f7056ef4ea2ece39d3", 
        "lat": 48.7996831, 
        "name": "DREAM ME UP", 
        "long": 2.2862539999999854, 
        "address": "RUE CAMILLE CLAUDEL 56890 Plescop"
    }, 
    {
        "category": "cf7050a5c9a865f7056ef4ea2ece39d3", 
        "lat": 48.8435035, 
        "name": "WEBNEGOCIA", 
        "long": 2.3226991000000226, 
        "address": "5 rue des Allumettes 13090 Aix-en-Provence"
    }, 
    {
        "category": "cf7050a5c9a865f7056ef4ea2ece39d3", 
        "lat": 48.895684, 
        "name": "WEBXY", 
        "long": 2.167119, 
        "address": "7 rue des Pommerots 78400 Chatou"
    }, 
    {
        "category": "cf7050a5c9a865f7056ef4ea2ece39d3", 
        "lat": 45.7541226, 
        "name": "SYNOLIA", 
        "long": 4.855925699999943, 
        "address": "59 rue de l'Abondance 69003 Lyon"
    }, 
    {
        "category": "cf7050a5c9a865f7056ef4ea2ece39d3", 
        "lat": 48.856614, 
        "name": "ADVERIS", 
        "long": 2.3522219, 
        "address": "130 boulevard Haussmann 75008 Paris"
    }, 
    {
        "category": "cf7050a5c9a865f7056ef4ea2ece39d3", 
        "lat": 50.63281540000001, 
        "name": "STIGMI", 
        "long": 3.0465263, 
        "address": "16 place du G\u00e9n\u00e9ral de Gaulle 59000 Lille"
    }, 
    {
        "category": "cf7050a5c9a865f7056ef4ea2ece39d3", 
        "lat": 44.8305935, 
        "name": "AMBRIS INFORMATIQUE", 
        "long": -0.7103052, 
        "address": "6 rue Joule 33700 M\u00e9rignac"
    }, 
    {
        "category": "cf7050a5c9a865f7056ef4ea2ece39d3", 
        "lat": 44.8475669, 
        "name": "MyWebShop", 
        "long": -0.6003131999999596, 
        "address": "29 rue de l'\u00c9cole Normale 33200 Bordeaux"
    }, 
    {
        "category": "cf7050a5c9a865f7056ef4ea2ece39d3", 
        "lat": 48.8593354, 
        "name": "TECLIB", 
        "long": 2.3460116999999627, 
        "address": "11 rue de Cambrai 75019 Paris"
    }, 
    {
        "category": "cf7050a5c9a865f7056ef4ea2ece39d3", 
        "lat": 43.491584, 
        "name": "E-PARTENAIRE", 
        "long": 5.33322499999997, 
        "address": "avenue Louis Philibert 13857 CEDEX 3 Aix-en-Provence"
    }, 
    {
        "category": "cf7050a5c9a865f7056ef4ea2ece39d3", 
        "lat": 48.326061, 
        "name": "SOC D EXPLOITATION DES ETS MAQUINAY", 
        "long": 2.218248000000017, 
        "address": "71 avenue de la Cour de France 91260 Juvisy-sur-Orge"
    }, 
    {
        "category": "cf7050a5c9a865f7056ef4ea2ece39d3", 
        "lat": 48.58208680000001, 
        "name": "ADIPSO", 
        "long": 7.735219899999947, 
        "address": "3 rue de la Division-Leclerc 67000 Strasbourg"
    }, 
    {
        "category": "cf7050a5c9a865f7056ef4ea2ece39d3", 
        "lat": 48.829422, 
        "name": "SUBNOMY", 
        "long": 2.402524, 
        "address": "3 avenue de Gravelle 94220 Charenton-le-Pont"
    }, 
    {
        "category": "cf7050a5c9a865f7056ef4ea2ece39d3", 
        "lat": 48.8685831, 
        "name": "ESEARCH VISION", 
        "long": 2.3237179999999853, 
        "address": "53 rue Nollet 75017 Paris"
    }, 
    {
        "category": "356a780d734f3a412c60d3a3e07a498a", 
        "lat": 48.89568819999999, 
        "name": "FREELANCE. COM", 
        "long": 2.2951980999999932, 
        "address": "1 parvis de la D\u00e9fense 92044 CEDEX Paris La D\u00e9fense"
    }, 
    {
        "category": "356a780d734f3a412c60d3a3e07a498a", 
        "lat": 48.85881005, 
        "name": "HOPWORK", 
        "long": 2.32003101155031, 
        "address": "123 rue de Rome 75017 Paris"
    }, 
    {
        "category": "356a780d734f3a412c60d3a3e07a498a", 
        "lat": 43.12611069999999, 
        "name": "NODALYS", 
        "long": 5.93252229999996, 
        "address": "lotissement l'Escapade B\u00e2timent E D7 N 13100 Le Tholonet"
    }, 
    {
        "category": "356a780d734f3a412c60d3a3e07a498a", 
        "lat": 48.871853, 
        "name": "404 WORKS", 
        "long": 2.369852, 
        "address": "170 avenue Parmentier 75010 Paris"
    }, 
    {
        "category": "739c4bd183ec7e3d8989cca44cec47d8", 
        "lat": 45.7628219, 
        "name": "INFOLEGALE", 
        "long": 4.8539616, 
        "address": "20 boulevard Eug\u00e8ne Deruelle 69003 Lyon"
    }, 
    {
        "category": "a165025d94065c4ac73f64681f2d70d2", 
        "lat": 47.2067229, 
        "name": "LENGOW", 
        "long": -1.5385874999999487, 
        "address": "6 rue Ren\u00e9 Viviani 44200 Nantes"
    }, 
    {
        "category": "a165025d94065c4ac73f64681f2d70d2", 
        "lat": 48.85881005, 
        "name": "NETEVEN", 
        "long": 2.32003101155031, 
        "address": "190 avenue Jean Jaur\u00e8s 75019 Paris"
    }, 
    {
        "category": "a165025d94065c4ac73f64681f2d70d2", 
        "lat": 48.85881005, 
        "name": "SELLERMANIA", 
        "long": 2.32003101155031, 
        "address": "10 rue de Penthi\u00e8vre 75008 Paris"
    }, 
    {
        "category": "a165025d94065c4ac73f64681f2d70d2", 
        "lat": 43.351849, 
        "name": "CIBLEWEB.COM", 
        "long": 3.3228, 
        "address": "1 rue Lignon 34500 B\u00e9ziers"
    }, 
    {
        "category": "603156d79917b5872f4d9dc87afadc3a", 
        "lat": 47.9634303, 
        "name": "AMAZON ONLINE FRANCE SAS", 
        "long": 1.8472535999999309, 
        "address": "67 boulevard du G\u00e9n\u00e9ral Leclerc 92110 Clichy"
    }, 
    {
        "category": "603156d79917b5872f4d9dc87afadc3a", 
        "lat": 43.3036424, 
        "name": "FNAC", 
        "long": 5.379304999999931, 
        "address": "9 rue des Bateaux-Lavoirs 94200 Ivry-sur-Seine"
    }, 
    {
        "category": "603156d79917b5872f4d9dc87afadc3a", 
        "lat": 44.86105359999999, 
        "name": "CDISCOUNT", 
        "long": -0.5522591000000148, 
        "address": "120-126 quai de Bacalan 33000 Bordeaux"
    }, 
    {
        "category": "603156d79917b5872f4d9dc87afadc3a", 
        "lat": 50.6970014, 
        "name": "LA REDOUTE", 
        "long": 3.1686866999999665, 
        "address": "110 rue de Blanchemaille 59100 Roubaix"
    }, 
    {
        "category": "603156d79917b5872f4d9dc87afadc3a", 
        "lat": 45.1942756, 
        "name": "SPARTOO SAS", 
        "long": 5.7322559, 
        "address": "16 rue Henri Barbusse 38000 Grenoble"
    }, 
    {
        "category": "603156d79917b5872f4d9dc87afadc3a", 
        "lat": 48.8736475, 
        "name": "SOCIETE ANONYME DES GALERIES LAFAYETTE", 
        "long": 2.332238299999972, 
        "address": "40 boulevard Haussmann 75009 Paris"
    }, 
    {
        "category": "603156d79917b5872f4d9dc87afadc3a", 
        "lat": 48.9069206, 
        "name": "ETABLISSEMENTS DARTY ET FILS", 
        "long": 2.4832400000000234, 
        "address": "129 avenue Gallieni 93140 Bondy"
    }, 
    {
        "category": "603156d79917b5872f4d9dc87afadc3a", 
        "lat": 48.90333990000001, 
        "name": "RUE DU COMMERCE", 
        "long": 2.3293301999999585, 
        "address": "44 50 avenue du Capitaine Glarner 93400 Saint-Ouen"
    }, 
    {
        "category": "603156d79917b5872f4d9dc87afadc3a", 
        "lat": 48.8738564, 
        "name": "LBC FRANCE", 
        "long": 2.321366600000033, 
        "address": "85-87 rue du Faubourg Saint-Martin 75010 Paris"
    }, 
    {
        "category": "603156d79917b5872f4d9dc87afadc3a", 
        "lat": 48.9069206, 
        "name": "ETABLISSEMENTS DARTY ET FILS", 
        "long": 2.4832400000000234, 
        "address": "129 avenue Gallieni 93140 Bondy"
    }, 
    {
        "category": "603156d79917b5872f4d9dc87afadc3a", 
        "lat": 48.856614, 
        "name": "ZALANDO", 
        "long": 2.3522219, 
        "address": "17 rue de la Banque 75002 Paris"
    }, 
    {
        "category": "603156d79917b5872f4d9dc87afadc3a", 
        "lat": 48.856614, 
        "name": "JUNG S.A.S", 
        "long": 2.3522219, 
        "address": "3 bis rue Durantin 75018 Paris"
    }, 
    {
        "category": "603156d79917b5872f4d9dc87afadc3a", 
        "lat": 48.91703519999999, 
        "name": "VENTE- PRIVEE. COM", 
        "long": 2.357103199999983, 
        "address": "249 avenue du Pr\u00e9sident Wilson 93210 Saint-Denis"
    }, 
    {
        "category": "603156d79917b5872f4d9dc87afadc3a", 
        "lat": 48.91276979999999, 
        "name": "SHOWROOMPRIVE.COM", 
        "long": 2.361834799999997, 
        "address": "1 rue des Bl\u00e9s 93212 CEDEX La Plaine-Saint-Denis"
    }, 
    {
        "category": "603156d79917b5872f4d9dc87afadc3a", 
        "lat": 44.784278, 
        "name": "DECO FRANCE", 
        "long": 4.768620000000055, 
        "address": "Lieudit Granejouls 81140 Cahuzac-sur-V\u00e8re"
    }, 
    {
        "category": "603156d79917b5872f4d9dc87afadc3a", 
        "lat": 50.666071, 
        "name": "AUCHAN FRANCE", 
        "long": 3.1496610000000373, 
        "address": "200 rue de la Recherche 59650 Villeneuve-d'Ascq"
    }, 
    {
        "category": "603156d79917b5872f4d9dc87afadc3a", 
        "lat": 48.314678, 
        "name": "NATALYS", 
        "long": -1.676118, 
        "address": "49/51 rue \u00c9mile Zola 93100 Montreuil"
    }, 
    {
        "category": "603156d79917b5872f4d9dc87afadc3a", 
        "lat": 48.856614, 
        "name": "DISTRI ARTISANS", 
        "long": 2.3522219, 
        "address": "21 place de la R\u00e9publique 75003 Paris"
    }, 
    {
        "category": "603156d79917b5872f4d9dc87afadc3a", 
        "lat": 45.7481616, 
        "name": "INTERFLORA FRANCE", 
        "long": 4.85568586786413, 
        "address": "103 avenue du Mar\u00e9chal de Saxe 69003 Lyon"
    }, 
    {
        "category": "603156d79917b5872f4d9dc87afadc3a", 
        "lat": 48.8709672, 
        "name": "SWAROVSKI FRANCE", 
        "long": 2.345239900000024, 
        "address": "15 boulevard Poissonni\u00e8re 75002 Paris"
    }, 
    {
        "category": "603156d79917b5872f4d9dc87afadc3a", 
        "lat": 48.9108131, 
        "name": "METRO CASH & CARRY FRANCE", 
        "long": 2.2143782000000556, 
        "address": "5 rue des Grands Pr\u00e8s 92024 Nanterre"
    }, 
    {
        "category": "603156d79917b5872f4d9dc87afadc3a", 
        "lat": 48.862108, 
        "name": "GROUPE GO SPORT", 
        "long": 2.3480930000000626, 
        "address": "17 avenue de la Falaise 38360 Sassenage"
    }, 
    {
        "category": "603156d79917b5872f4d9dc87afadc3a", 
        "lat": 50.5862231, 
        "name": "BOULANGER", 
        "long": 3.0967782999999827, 
        "address": "avenue de la Motte 59810 Lesquin"
    }, 
    {
        "category": "603156d79917b5872f4d9dc87afadc3a", 
        "lat": 48.8763, 
        "name": "MONSIEUR ALEXANDRE NAPPEY", 
        "long": 2.3183, 
        "address": "9 RUE PIERRE LE GRAND 75008 Paris"
    }, 
    {
        "category": "603156d79917b5872f4d9dc87afadc3a", 
        "lat": 48.9007611, 
        "name": "POUR DE BON", 
        "long": 2.2897758, 
        "address": "2 rue Paul Vaillant Couturier 92300 Levallois-Perret"
    }, 
    {
        "category": "603156d79917b5872f4d9dc87afadc3a", 
        "lat": 43.33788879999999, 
        "name": "RICARD", 
        "long": 5.393232399999988, 
        "address": "4/6 rue Berthelot 13014 Marseille"
    }, 
    {
        "category": "603156d79917b5872f4d9dc87afadc3a", 
        "lat": 48.846062, 
        "name": "SENIOR & CIE", 
        "long": 1.525732, 
        "address": "155 159 rue du Docteur Bauer 93400 Saint-Ouen"
    }, 
    {
        "category": "603156d79917b5872f4d9dc87afadc3a", 
        "lat": 48.85881005, 
        "name": "OUTIZ", 
        "long": 2.32003101155031, 
        "address": "13-15 rue Germaine Tailleferre 75019 Paris"
    }, 
    {
        "category": "603156d79917b5872f4d9dc87afadc3a", 
        "lat": 46.3161072, 
        "name": "CAMIF MATELSOM", 
        "long": -0.4883766000000378, 
        "address": "66 rue Jacques Daguerre 79000 Niort"
    }, 
    {
        "category": "603156d79917b5872f4d9dc87afadc3a", 
        "lat": 43.483534, 
        "name": "LABEL-PARK. COM", 
        "long": -1.557753, 
        "address": "9 rue de la N\u00e9gresse 64200 Biarritz"
    }, 
    {
        "category": "603156d79917b5872f4d9dc87afadc3a", 
        "lat": 48.85881005, 
        "name": "ATLASFORMEN", 
        "long": 2.32003101155031, 
        "address": "87-89 rue La Bo\u00e9tie 75008 Paris"
    }, 
    {
        "category": "603156d79917b5872f4d9dc87afadc3a", 
        "lat": 47.248046, 
        "name": "ETABLISSEMENTS HORTICOLES GEORGES TRUFFAUT", 
        "long": -1.6064629999999624, 
        "address": "2 avenue des Parcs 91090 Lisses"
    }, 
    {
        "category": "603156d79917b5872f4d9dc87afadc3a", 
        "lat": 43.6579947, 
        "name": "RETIF", 
        "long": 7.1217592, 
        "address": "679 avenue Docteur Lef\u00e8bvre 06270 Villeneuve-Loubet"
    }, 
    {
        "category": "603156d79917b5872f4d9dc87afadc3a", 
        "lat": 48.68141749999999, 
        "name": "ELBEE", 
        "long": 2.2034062000000176, 
        "address": "32 avenue de l'Oc\u00e9anie 91140 Villejust"
    }, 
    {
        "category": "603156d79917b5872f4d9dc87afadc3a", 
        "lat": 48.8325091, 
        "name": "NATURE ET DECOUVERTES", 
        "long": 2.3858982000000424, 
        "address": "1 avenue de l'Europe 78117 Toussus-le-Noble"
    }, 
    {
        "category": "603156d79917b5872f4d9dc87afadc3a", 
        "lat": 48.87508570000001, 
        "name": "PIXMANIA", 
        "long": 2.288394100000005, 
        "address": "2-8 rue Sarah Bernhardt 92600 Asni\u00e8res-sur-Seine"
    }, 
    {
        "category": "603156d79917b5872f4d9dc87afadc3a", 
        "lat": 48.91703519999999, 
        "name": "VENTE- PRIVEE. COM", 
        "long": 2.357103199999983, 
        "address": "249 avenue du Pr\u00e9sident Wilson 93210 Saint-Denis"
    }, 
    {
        "category": "603156d79917b5872f4d9dc87afadc3a", 
        "lat": 44.3929415, 
        "name": "GIFI MAG", 
        "long": 0.7403686000000107, 
        "address": "27  LA BARBIERE 47300 Villeneuve-sur-Lot"
    }, 
    {
        "category": "603156d79917b5872f4d9dc87afadc3a", 
        "lat": 44.852842, 
        "name": "WINE AND CO", 
        "long": -0.5677259999999933, 
        "address": "67 quai des Chartrons 33300 Bordeaux"
    }, 
    {
        "category": "603156d79917b5872f4d9dc87afadc3a", 
        "lat": 48.314678, 
        "name": "LABEL EMMAUS", 
        "long": -1.676118, 
        "address": "104 avenue de la R\u00e9sistance 93100 Montreuil"
    }, 
    {
        "category": "603156d79917b5872f4d9dc87afadc3a", 
        "lat": 48.933397, 
        "name": "LE CHEQUE DEJEUNER", 
        "long": 2.30759, 
        "address": "27-29 avenue des Louvresses 92230 Gennevilliers"
    }, 
    {
        "category": "603156d79917b5872f4d9dc87afadc3a", 
        "lat": 48.856614, 
        "name": "WISHIBAM", 
        "long": 2.3522219, 
        "address": "22 place Vend\u00f4me 75001 Paris"
    }, 
    {
        "category": "603156d79917b5872f4d9dc87afadc3a", 
        "lat": 48.8377212, 
        "name": "ALTER CE", 
        "long": 2.2427826, 
        "address": "119 rue de Paris 92100 Boulogne-Billancourt"
    }, 
    {
        "category": "603156d79917b5872f4d9dc87afadc3a", 
        "lat": 47.66563299999999, 
        "name": "BEBE AU NATUREL", 
        "long": -3.0167770000000473, 
        "address": "ZA DU MOUSTOIR NORD 56950 Crach"
    }, 
    {
        "category": "603156d79917b5872f4d9dc87afadc3a", 
        "lat": 48.906065, 
        "name": "My Genius", 
        "long": 2.28271, 
        "address": "5 rue Michelet 92600 Asni\u00e8res-sur-Seine"
    }, 
    {
        "category": "603156d79917b5872f4d9dc87afadc3a", 
        "lat": 43.6293863, 
        "name": "TOULOUSE ENCADREMENT", 
        "long": 1.367682, 
        "address": "34 boulevard de la Gare 31500 Toulouse"
    }, 
    {
        "category": "603156d79917b5872f4d9dc87afadc3a", 
        "lat": 43.5304, 
        "name": "LA BELLE ET LE BARBU", 
        "long": 1.536, 
        "address": "41 rue de la D\u00e9couverte 31676 CEDEX Lab\u00e8ge"
    }, 
    {
        "category": "603156d79917b5872f4d9dc87afadc3a", 
        "lat": 48.8834492, 
        "name": "BOTICINAL DOTCOM", 
        "long": 2.2335673, 
        "address": "1 place de la Pyramide 92800 Puteaux"
    }, 
    {
        "category": "603156d79917b5872f4d9dc87afadc3a", 
        "lat": 48.876387, 
        "name": "KOLECTIV DESIGN", 
        "long": 2.292405, 
        "address": "11 rue Anatole De La Forge 75017 Paris"
    }, 
    {
        "category": "603156d79917b5872f4d9dc87afadc3a", 
        "lat": 48.7717933, 
        "name": "DESPORTEO", 
        "long": 2.030166, 
        "address": "12 avenue des Pr\u00e8s - 78180 Montigny-le-Bretonneux"
    }, 
    {
        "category": "603156d79917b5872f4d9dc87afadc3a", 
        "lat": 48.866155, 
        "name": "OKADRAN", 
        "long": 2.195571, 
        "address": "8 rue Paul Gimont 92500 Rueil-Malmaison"
    }, 
    {
        "category": "603156d79917b5872f4d9dc87afadc3a", 
        "lat": 45.759567, 
        "name": "LINKEAT", 
        "long": 4.830318, 
        "address": "11 place Antonin Gourju 69002 Lyon"
    }, 
    {
        "category": "ae6bf33dca17c083b165de292947dacb", 
        "lat": 48.8661414, 
        "name": "MIRAKL", 
        "long": 2.2926717999999937, 
        "address": "45 rue de la Bienfaisance 75008 Paris"
    }, 
    {
        "category": "a58b33a7d845cac420bd8b506879daca", 
        "lat": 48.86844699999999, 
        "name": "PAYPAL FRANCE SAS", 
        "long": 2.34112099999993, 
        "address": "21 rue de la Banque 75002 Paris"
    }, 
    {
        "category": "a58b33a7d845cac420bd8b506879daca", 
        "lat": 48.856614, 
        "name": "Leetchi", 
        "long": 2.3522219, 
        "address": "4 rue de la Tour des Dames 75009 Paris"
    }, 
    {
        "category": "c426c73c3ac919e78e96fc4aa4f68a0c", 
        "lat": 48.85881005, 
        "name": "TWENGA", 
        "long": 2.32003101155031, 
        "address": "38 rue du Sentier 75002 Paris"
    }, 
    {
        "category": "795f3202b17cb6bc3d4b771d8c6c9eaf", 
        "lat": 48.856614, 
        "name": "NEO9", 
        "long": 2.3522219, 
        "address": "79 rue des Archives 75003 Paris"
    }, 
    {
        "category": "795f3202b17cb6bc3d4b771d8c6c9eaf", 
        "lat": 48.856614, 
        "name": "PROXIMIS", 
        "long": 2.3522219, 
        "address": "10 rue des Bluets 75011 Paris"
    }, 
    {
        "category": "db96ff26706a1a3d595ecb67266c2d94", 
        "lat": 48.856614, 
        "name": "202 ECOMMERCE", 
        "long": 2.3522219, 
        "address": "11 rue de Milan 75009 Paris"
    }, 
    {
        "category": null, 
        "lat": 43.30191685, 
        "name": "NET REVIEWS", 
        "long": 5.54784154590438, 
        "address": "18-20 boulevard Robert Schuman 13002 Marseille"
    }, 
    {
        "category": null, 
        "lat": 48.81876099999999, 
        "name": "BLOG ECOMMERCE", 
        "long": 2.3205051, 
        "address": "21 avenue du Fort 92120 Montrouge"
    }, 
    {
        "category": null, 
        "lat": 48.8746822, 
        "name": "BNP PARIBAS PERSONAL FINANCE", 
        "long": 2.3398975000000064, 
        "address": "1 boulevard Haussmann 75009 Paris"
    }, 
    {
        "category": null, 
        "lat": 45.7481616, 
        "name": "DAWEX Systems", 
        "long": 4.85568586786413, 
        "address": "20 place Louis Pradel 69001 Lyon"
    }, 
    {
        "category": null, 
        "lat": 48.5397395, 
        "name": "WEB SITE", 
        "long": 2.6584265999999843, 
        "address": "16 rue du Miroir 77000 Melun"
    }, 
    {
        "category": null, 
        "lat": 48.8911303, 
        "name": "EMARSYS", 
        "long": 2.285740300000043, 
        "address": "67 rue Anatole France / 92300 Levallois-Perret"
    }, 
    {
        "category": null, 
        "lat": 48.856614, 
        "name": "LA SPEC", 
        "long": 2.3522219, 
        "address": "8 rue Lemercier 75017 Paris"
    }, 
    {
        "category": null, 
        "lat": 48.8043994, 
        "name": "EXPERTIME", 
        "long": 2.1762876, 
        "address": "80bis avenue du G\u00e9n\u00e9ral Leclerc 78220 Viroflay"
    }, 
    {
        "category": null, 
        "lat": 48.8411234, 
        "name": "SOCIETE GENERALE", 
        "long": 2.3135111999999936, 
        "address": "29 boulevard Haussmann 75009 Paris"
    }, 
    {
        "category": null, 
        "lat": 48.85881005, 
        "name": "HIPAY", 
        "long": 2.32003101155031, 
        "address": "6 place du Colonel Bourgoin 75012 Paris"
    }, 
    {
        "category": null, 
        "lat": 48.836059, 
        "name": "ADSONWALL", 
        "long": 2.235465, 
        "address": "150 rue Gallieni 92100 Boulogne-Billancourt"
    }, 
    {
        "category": null, 
        "lat": 49.4299296, 
        "name": "KEYVEO", 
        "long": 1.0704747, 
        "address": "72 rue de la R\u00e9publique 76140 Le Petit-Quevilly"
    }, 
    {
        "category": null, 
        "lat": 43.5264925, 
        "name": "NETWAVE", 
        "long": 1.5162722, 
        "address": "308 all\u00e9e du Lac 31670 Lab\u00e8ge"
    }, 
    {
        "category": null, 
        "lat": 48.85881005, 
        "name": "Pitchy Bros Prod", 
        "long": 2.32003101155031, 
        "address": "46 avenue Niel 75017 Paris"
    }, 
    {
        "category": null, 
        "lat": 46.1413449, 
        "name": "EASYBILL", 
        "long": -1.1684351999999762, 
        "address": "avenue du Lazaret 17000 La Rochelle"
    }, 
    {
        "category": null, 
        "lat": 48.8448, 
        "name": "SYND NAL COMM DIRECTE DATA LOGISTIQUE", 
        "long": 2.3471, 
        "address": "68 BD SAINT MARCEL 75005 Paris"
    }, 
    {
        "category": "cf7050a5c9a865f7056ef4ea2ece39d3", 
        "lat": 47.6670724, 
        "name": "UKOO", 
        "long": 7.42029874937019, 
        "address": "37 boulevard Alfred-Wallach 68100 Mulhouse"
    }, 
    {
        "category": "cf7050a5c9a865f7056ef4ea2ece39d3", 
        "lat": 43.5283, 
        "name": "LYONKOM", 
        "long": 5.4497, 
        "address": "805 rue Guillibert Gautier de la Lauziere 13856 CEDEX 3 Aix-en-Provence"
    }, 
    {
        "category": "cf7050a5c9a865f7056ef4ea2ece39d3", 
        "lat": 43.6674802, 
        "name": "WEB ALLIANCE", 
        "long": 7.214020099999971, 
        "address": "455 promenade des Anglais 06200 Nice"
    }, 
    {
        "category": "cf7050a5c9a865f7056ef4ea2ece39d3", 
        "lat": 50.741541, 
        "name": "AXECIBLES", 
        "long": 3.148631000000023, 
        "address": "87 rue du Molinel 59700 Marcq-en-Bar\u0153ul"
    }, 
    {
        "category": "cf7050a5c9a865f7056ef4ea2ece39d3", 
        "lat": 48.937516, 
        "name": "TARGET WEB", 
        "long": 2.157329, 
        "address": "14 rue des Rosiers 78500 Sartrouville"
    }, 
    {
        "category": "cf7050a5c9a865f7056ef4ea2ece39d3", 
        "lat": 48.9865327, 
        "name": "23 PROD", 
        "long": 1.7601975000000039, 
        "address": "150 rue d'Aulnay 92290 Ch\u00e2tenay-Malabry"
    }, 
    {
        "category": "cf7050a5c9a865f7056ef4ea2ece39d3", 
        "lat": 48.856614, 
        "name": "ADFORALL", 
        "long": 2.3522219, 
        "address": "153 boulevard Lefebvre 75015 Paris"
    }, 
    {
        "category": "cf7050a5c9a865f7056ef4ea2ece39d3", 
        "lat": 48.856614, 
        "name": "ORVEGA", 
        "long": 2.3522219, 
        "address": "20 rue Lalande 75014 Paris"
    }, 
    {
        "category": "a165025d94065c4ac73f64681f2d70d2", 
        "lat": 48.85881005, 
        "name": "BEEZUP", 
        "long": 2.32003101155031, 
        "address": "10 rue de Penthi\u00e8vre 75008 Paris"
    }
]
